{"type":"FeatureCollection","features":[{"type":"Feature","properties":{"cartodb_id":5,"name":"Zaventem","country":"BE","created_at":"2014-05-23T11:46:59Z","updated_at":"2014-05-23T13:58:01Z","type":"weather"},"geometry":{"type":"Point","coordinates":[4.451,50.901]}},{"type":"Feature","properties":{"cartodb_id":4,"name":"Wideumont","country":"BE","created_at":"2014-05-23T11:46:41Z","updated_at":"2014-05-23T13:58:39Z","type":"weather"},"geometry":{"type":"Point","coordinates":[5.5045,49.914]}},{"type":"Feature","properties":{"cartodb_id":3,"name":"Jabbeke","country":"BE","created_at":"2014-05-23T11:46:34Z","updated_at":"2014-05-23T13:59:29Z","type":"weather"},"geometry":{"type":"Point","coordinates":[3.0654,51.1927]}},{"type":"Feature","properties":{"cartodb_id":1,"name":"De Bilt","country":"NL","created_at":"2014-05-23T11:45:25Z","updated_at":"2014-05-23T14:00:02Z","type":"weather"},"geometry":{"type":"Point","coordinates":[5.1783,52.1017]}},{"type":"Feature","properties":{"cartodb_id":2,"name":"Den Helder","country":"NL","created_at":"2014-05-23T11:46:11Z","updated_at":"2014-05-23T14:00:51Z","type":"weather"},"geometry":{"type":"Point","coordinates":[4.7899,52.9533]}}]}